[
  {
    "id": "ChIJZdyFGN-ZyFYRDhHNxxafUzo",
    "number": "ChIJZdyFGN-ZyFYRDhHNxxafUzo",
    "name": "The Home Depot",
    "address": "1715 Abbott Road",
    "city": "Anchorage",
    "state": "AK",
    "zip": "99507",
    "phone": "(907) 644-5646",
    "lat": 61.1435487,
    "lng": -149.8438692,
    "hours": {
      "weekday": "Mon-Fri: 6:00â€¯AMâ€‰â€“â€‰9:00â€¯PM",
      "weekend": "6:00â€¯AMâ€‰â€“â€‰9:00â€¯PM / 7:00â€¯AMâ€‰â€“â€‰8:00â€¯PM"
    },
    "services": [
      "Home Improvement Store",
      "Hardware",
      "Retail"
    ],
    "hoursLastChangedAt": "2025-11-21T09:13:00.061Z",
    "hoursFetchedAt": "2025-11-21T09:13:00.061Z"
  },
  {
    "id": "ChIJB_DgD2iWyFYRwnCrlunOI-8",
    "number": "ChIJB_DgD2iWyFYRwnCrlunOI-8",
    "name": "The Home Depot",
    "address": "400 Rodeo Place",
    "city": "Anchorage",
    "state": "AK",
    "zip": "99508",
    "phone": "(907) 276-2006",
    "lat": 61.2186336,
    "lng": -149.813851,
    "hours": {
      "weekday": "Mon-Fri: 6:00â€¯AMâ€‰â€“â€‰9:00â€¯PM",
      "weekend": "6:00â€¯AMâ€‰â€“â€‰9:00â€¯PM / 7:00â€¯AMâ€‰â€“â€‰8:00â€¯PM"
    },
    "services": [
      "Home Improvement Store",
      "Hardware",
      "Retail"
    ],
    "hoursLastChangedAt": "2025-11-21T09:13:00.062Z",
    "hoursFetchedAt": "2025-11-21T09:13:00.062Z"
  },
  {
    "id": "ChIJA3GuKryXyFYRoU6c10wRNzQ",
    "number": "ChIJA3GuKryXyFYRoU6c10wRNzQ",
    "name": "The Home Depot",
    "address": "515 East Tudor Road",
    "city": "Anchorage",
    "state": "AK",
    "zip": "99503",
    "phone": "(907) 563-9800",
    "lat": 61.18266419999999,
    "lng": -149.8743264,
    "hours": {
      "weekday": "Mon-Fri: 6:00â€¯AMâ€‰â€“â€‰9:00â€¯PM",
      "weekend": "6:00â€¯AMâ€‰â€“â€‰9:00â€¯PM / 7:00â€¯AMâ€‰â€“â€‰8:00â€¯PM"
    },
    "services": [
      "Home Improvement Store",
      "Hardware",
      "Retail"
    ],
    "hoursLastChangedAt": "2025-11-21T09:13:00.062Z",
    "hoursFetchedAt": "2025-11-21T09:13:00.062Z"
  },
  {
    "id": "ChIJlx-vtWtFMlERlTW2lyqYb8I",
    "number": "ChIJlx-vtWtFMlERlTW2lyqYb8I",
    "name": "Lowe's Home Improvement",
    "address": "425 Merhar Avenue",
    "city": "Fairbanks",
    "state": "AK",
    "zip": "99701",
    "phone": "(907) 451-4700",
    "lat": 64.8567419,
    "lng": -147.69554019999998,
    "hours": {
      "weekday": "Mon-Fri: 6:00â€¯AMâ€‰â€“â€‰9:00â€¯PM",
      "weekend": "6:00â€¯AMâ€‰â€“â€‰9:00â€¯PM / 7:00â€¯AMâ€‰â€“â€‰8:00â€¯PM"
    },
    "services": [
      "Home Improvement Store",
      "Hardware",
      "Retail"
    ],
    "hoursLastChangedAt": "2025-11-21T09:13:00.061Z",
    "hoursFetchedAt": "2025-11-21T09:13:00.061Z"
  },
  {
    "id": "ChIJI_Ks3m5FMlERCs9r5raPotk",
    "number": "ChIJI_Ks3m5FMlERCs9r5raPotk",
    "name": "The Home Depot",
    "address": "1301 Old Steese Highway",
    "city": "Fairbanks",
    "state": "AK",
    "zip": "99701",
    "phone": "(907) 451-9003",
    "lat": 64.85763659999999,
    "lng": -147.6825867,
    "hours": {
      "weekday": "Mon-Fri: 6:00â€¯AMâ€‰â€“â€‰9:00â€¯PM",
      "weekend": "6:00â€¯AMâ€‰â€“â€‰9:00â€¯PM / 7:00â€¯AMâ€‰â€“â€‰8:00â€¯PM"
    },
    "services": [
      "Home Improvement Store",
      "Hardware",
      "Retail"
    ],
    "hoursLastChangedAt": "2025-11-21T09:13:00.052Z",
    "hoursFetchedAt": "2025-11-21T09:13:00.052Z"
  }
]